SessionTime,SessionTick,SessionNum,SessionState,SessionUniqueID,SessionFlags,SessionTimeRemain,SessionLapsRemain,SessionLapsRemainEx,SessionTimeTotal,SessionLapsTotal,SessionJokerLapsRemain,SessionOnJokerLap,SessionTimeOfDay,DriverMarker,PushToTalk,PushToPass,ManualBoost,ManualNoBoost,IsOnTrack,FrameRate,CpuUsageFG,GpuUsage,ChanAvgLatency,ChanLatency,ChanQuality,ChanPartnerQuality,CpuUsageBG,ChanClockSkew,MemPageFaultSec,MemSoftPageFaultSec,PlayerCarPosition,PlayerCarClassPosition,PlayerCarClass,PlayerTrackSurface,PlayerTrackSurfaceMaterial,PlayerCarIdx,PlayerCarTeamIncidentCount,PlayerCarMyIncidentCount,PlayerCarDriverIncidentCount,PlayerCarWeightPenalty,PlayerCarPowerAdjust,PlayerCarDryTireSetLimit,PlayerCarTowTime,PlayerCarInPitStall,PlayerCarPitSvStatus,PlayerTireCompound,PlayerFastRepairsUsed,PaceMode,OnPitRoad,SteeringWheelAngle,Throttle,Brake,Clutch,Gear,RPM,Lap,LapCompleted,LapDist,LapDistPct,LapBestLap,LapBestLapTime,LapLastLapTime,LapCurrentLapTime,LapLasNLapSeq,LapLastNLapTime,LapBestNLapLap,LapBestNLapTime,LapDeltaToBestLap,LapDeltaToBestLap_DD,LapDeltaToBestLap_OK,LapDeltaToOptimalLap,LapDeltaToOptimalLap_DD,LapDeltaToOptimalLap_OK,LapDeltaToSessionBestLap,LapDeltaToSessionBestLap_DD,LapDeltaToSessionBestLap_OK,LapDeltaToSessionOptimalLap,LapDeltaToSessionOptimalLap_DD,LapDeltaToSessionOptimalLap_OK,LapDeltaToSessionLastlLap,LapDeltaToSessionLastlLap_DD,LapDeltaToSessionLastlLap_OK,Speed,Yaw,YawNorth,Pitch,Roll,EnterExitReset,Lat,Lon,Alt,TrackTemp,TrackTempCrew,AirTemp,TrackWetness,Skies,AirDensity,AirPressure,WindVel,WindDir,RelativeHumidity,FogLevel,Precipitation,SolarAltitude,SolarAzimuth,WeatherDeclaredWet,PitsOpen,PitRepairLeft,PitOptRepairLeft,PitstopActive,FastRepairUsed,FastRepairAvailable,LFTiresUsed,RFTiresUsed,LRTiresUsed,RRTiresUsed,LeftTireSetsUsed,RightTireSetsUsed,FrontTireSetsUsed,RearTireSetsUsed,TireSetsUsed,LFTiresAvailable,RFTiresAvailable,LRTiresAvailable,RRTiresAvailable,LeftTireSetsAvailable,RightTireSetsAvailable,FrontTireSetsAvailable,RearTireSetsAvailable,TireSetsAvailable,IsOnTrackCar,SteeringWheelAngleMax,ShiftPowerPct,ShiftGrindRPM,ThrottleRaw,BrakeRaw,ClutchRaw,HandbrakeRaw,BrakeABSactive,BrakeABScutPct,EngineWarnings,FuelLevelPct,PitSvFlags,PitSvLFP,PitSvRFP,PitSvLRP,PitSvRRP,PitSvFuel,PitSvTireCompound,SteeringWheelPctTorque,SteeringWheelPctTorqueSign,SteeringWheelPctTorqueSignStops,SteeringWheelPctIntensity,SteeringWheelPctSmoothing,SteeringWheelPctDamper,SteeringWheelLimiter,SteeringWheelMaxForceNm,SteeringWheelUseLinear,ShiftIndicatorPct,TireLF_RumblePitch,TireRF_RumblePitch,TireLR_RumblePitch,TireRR_RumblePitch,SteeringWheelTorque_ST,SteeringWheelTorque,VelocityZ,VelocityY,VelocityX,YawRate,PitchRate,RollRate,VertAccel,LatAccel,LongAccel,dcStarter,dcPitSpeedLimiterToggle,dcTearOffVisor,dpTireChange,dpFuelFill,dpFuelAutoFillEnabled,dpFuelAutoFillActive,dpFuelAddKg,dpFastRepair,dcBrakeBias,dpLFTireColdPress,dpRFTireColdPress,dpLRTireColdPress,dpRRTireColdPress,RFbrakeLinePress,RFspeed,RFpressure,RFcoldPressure,RFtempL,RFtempM,RFtempR,RFtempCL,RFtempCM,RFtempCR,RFwearL,RFwearM,RFwearR,LFbrakeLinePress,LFspeed,LFpressure,LFcoldPressure,LFtempL,LFtempM,LFtempR,LFtempCL,LFtempCM,LFtempCR,LFwearL,LFwearM,LFwearR,FuelUsePerHour,Voltage,WaterTemp,WaterLevel,FuelPress,OilTemp,OilPress,OilLevel,ManifoldPress,FuelLevel,Engine0_RPM,RRbrakeLinePress,RRspeed,RRpressure,RRcoldPressure,RRtempL,RRtempM,RRtempR,RRtempCL,RRtempCM,RRtempCR,RRwearL,RRwearM,RRwearR,LRbrakeLinePress,LRspeed,LRpressure,LRcoldPressure,LRtempL,LRtempM,LRtempR,LRtempCL,LRtempCM,LRtempCR,LRwearL,LRwearM,LRwearR,LRshockDefl,LRshockVel,RRshockDefl,RRshockVel,LFshockDefl,LFshockVel,RFshockDefl,RFshockVel,LFrideHeight,RFrideHeight,LRrideHeight,RRrideHeight
229.50000000007702,55550,0,4,1,268697600,1570.5166666665896,32767,32767,1800.0,32767,0,False,50700.0,False,False,False,False,False,True,120.49207305908203,0.22007223963737488,0.2324664443731308,0.3346012234687805,0.3333333432674408,1.0002716779708862,1.0,0.06699933111667633,0.0,0.0,0.0,0,0,3188,3,1,0,0,0,0,0.0,0.0,0,0.0,False,0,0,0,4,False,-0.1365990936756134,0.0,1.0,0.0,0,300.0,0,-1,4841.1806640625,0.8414220213890076,0,0.0,0.0,0.0,0,0.0,0,0.0,0.0,0.0,False,0.0,0.0,False,0.0,0.0,False,0.0,0.0,False,0.0,0.0,False,0.0019655756186693907,4.639803955797106e-05,1.9034919738769531,-0.002310775686055422,0.004975354298949242,1,34.84418873549317,136.53014611382733,45.87961196899414,26.111114501953125,26.111114501953125,23.88888931274414,1,3,1.1786601543426514,101011.359375,0.44703999161720276,5.4977874755859375,0.46000000834465027,0.0,0.0,1.016387939453125,4.455936431884766,False,True,0.0,0.0,False,0,0,1,1,1,1,1,1,1,1,1,1,1,1,1,1,1,1,1,1,True,6.719511985778809,0.0,0.0,0.0,0.0,1.0,0.0,False,1.0,4,0.4249584376811981,31,117.21088409423828,117.21088409423828,117.21088409423828,117.21088409423828,40.0,0,0.004861770197749138,-0.004861770197749138,-0.0005717308958992362,0.5,0.0,0.0,0.0,20.784610748291016,True,0.0,0.0,0.0,0.0,0.0,"[0.17942072451114655, 0.09652642160654068, 0.044404853135347366, -0.013666486367583275, -0.05518155172467232, -0.1010499969124794]",-0.1010499969124794,0.0001715291291475296,-0.0019047060050070286,0.00048536842223256826,-0.001703777234070003,-5.886924918740988e-05,-0.04021206870675087,9.805663108825684,0.2853413224220276,0.021509427577257156,False,False,False,1.0,1.0,0.0,0.0,40.0,0.0,57.96820068359375,117.21087646484375,117.21087646484375,117.21087646484375,117.21087646484375,80.1976547241211,0.00045125698670744896,116.91687774658203,117.21088409423828,63.7127685546875,63.71282958984375,63.736236572265625,67.67233276367188,67.67233276367188,67.67233276367188,1.0,1.0,1.0,80.1976547241211,0.000940933998208493,116.9173355102539,117.21088409423828,63.738189697265625,63.716064453125,63.7159423828125,67.67233276367188,67.67233276367188,67.67233276367188,1.0,1.0,1.0,0.0,13.800000190734863,77.03634643554688,6.71999979019165,3.9000000953674316,77.1681137084961,1.3397899866104126,6.624000549316406,1.007921814918518,16.99833869934082,274.5859375,58.15000915527344,0.0001509375433670357,116.9624252319336,117.21088409423828,63.74517822265625,63.74517822265625,63.749114990234375,67.6220703125,67.6220703125,67.6220703125,1.0,1.0,1.0,58.15000915527344,0.0003551385016180575,116.96202087402344,117.21088409423828,63.748779296875,63.745208740234375,63.7452392578125,67.6220703125,67.6220703125,67.6220703125,1.0,1.0,1.0,0.016926849260926247,0.007037916220724583,0.016885658726096153,-0.006738121155649424,0.016387155279517174,0.005557070020586252,0.016581712290644646,-0.0058427476324141026,0.017087101936340332,0.018288403749465942,0.027411796152591705,0.028879426419734955
229.5166666667437,55551,0,4,1,268697600,1570.499999999923,32767,32767,1800.0,32767,0,False,50700.0,False,False,False,False,False,True,120.52409362792969,0.22039423882961273,0.23286785185337067,0.3346012234687805,0.3333333432674408,0.9991611838340759,1.0,0.06699933111667633,0.0,0.0,0.0,0,0,3188,3,1,0,0,0,0,0.0,0.0,0,0.0,False,0,0,0,4,False,-0.1365990936756134,0.0,1.0,0.0,0,300.0,0,-1,4841.1806640625,0.8414220213890076,0,0.0,0.0,0.0,0,0.0,0,0.0,0.0,0.0,False,0.0,0.0,False,0.0,0.0,False,0.0,0.0,False,0.0,0.0,False,0.0029420030768960714,4.146347782807425e-05,1.9034968614578247,-0.0023114026989787817,0.004521701484918594,1,34.84418873549317,136.53014611382733,45.87961196899414,26.111114501953125,26.111114501953125,23.88888931274414,1,3,1.1786601543426514,101011.359375,0.44703999161720276,5.4977874755859375,0.46000000834465027,0.0,0.0,1.016387939453125,4.455936431884766,False,True,0.0,0.0,False,0,0,1,1,1,1,1,1,1,1,1,1,1,1,1,1,1,1,1,1,True,6.719511985778809,0.0,0.0,0.0,0.0,1.0,0.0,False,1.0,4,0.4249584376811981,31,117.21088409423828,117.21088409423828,117.21088409423828,117.21088409423828,40.0,0,0.00343951303511858,-0.00343951303511858,-0.0004088490968570113,0.5,0.0,0.0,0.0,20.784610748291016,True,0.0,0.0,0.0,0.0,0.0,"[-0.14289066195487976, -0.17434796690940857, -0.15884752571582794, -0.13197913765907288, -0.1074918732047081, -0.07148893922567368]",-0.07148893922567368,0.00011868153524119407,0.0028861763421446085,0.0005704109207727015,0.0014448442962020636,-3.4152377338614315e-05,-0.0010096800979226828,9.795727729797363,0.31331324577331543,0.030201811343431473,False,False,False,1.0,1.0,0.0,0.0,40.0,0.0,57.96820068359375,117.21087646484375,117.21087646484375,117.21087646484375,117.21087646484375,80.1976547241211,5.389282887335867e-05,116.91678619384766,117.21088409423828,63.71246337890625,63.7125244140625,63.735870361328125,67.67233276367188,67.67233276367188,67.67233276367188,1.0,1.0,1.0,80.1976547241211,0.00013625109568238258,116.9172592163086,117.21088409423828,63.737823486328125,63.7156982421875,63.715576171875,67.67233276367188,67.67233276367188,67.67233276367188,1.0,1.0,1.0,0.0,13.800000190734863,77.03633117675781,6.71999979019165,3.9000000953674316,77.1681900024414,1.2771345376968384,6.624000549316406,1.007921814918518,16.99833869934082,241.20265197753906,58.15000915527344,0.00017134954396169633,116.96234893798828,117.21088409423828,63.744842529296875,63.744842529296875,63.748748779296875,67.6220703125,67.6220703125,67.6220703125,1.0,1.0,1.0,58.15000915527344,0.00029278252623043954,116.96194458007812,117.21088409423828,63.7484130859375,63.74481201171875,63.744842529296875,67.6220703125,67.6220703125,67.6220703125,1.0,1.0,1.0,0.017044782638549805,0.0059381695464253426,0.016777541488409042,-0.005128071177750826,0.016475103795528412,0.0027236221358180046,0.01648501120507717,-0.0030901937279850245,0.016994178295135498,0.01839108020067215,0.027317218482494354,0.02897901087999344
229.53333333341038,55552,0,4,1,268697600,1570.4833333332563,32767,32767,1800.0,32767,0,False,50700.0,False,False,False,False,False,True,120.55707550048828,0.22040343284606934,0.23311977088451385,0.3346012234687805,0.3333333432674408,0.9980531930923462,1.0,0.065999336540699,0.0,0.0,0.0,0,0,3188,3,1,0,0,0,0,0.0,0.0,0,0.0,False,0,0,0,4,False,-0.1365990936756134,0.0,1.0,0.0,0,305.37042236328125,0,-1,4841.1806640625,0.8414220213890076,0,0.0,0.0,0.0,0,0.0,0,0.0,0.0,0.0,False,0.0,0.0,False,0.0,0.0,False,0.0,0.0,False,0.0,0.0,False,0.0031309728510677814,7.723861199337989e-05,1.9034610986709595,-0.0023108702152967453,0.004866753704845905,1,34.84418873549317,136.53014611382733,45.87961196899414,26.111114501953125,26.111114501953125,23.88888931274414,1,3,1.1786601543426514,101011.359375,0.44703999161720276,5.4977874755859375,0.46000000834465027,0.0,0.0,1.016387939453125,4.455936431884766,False,True,0.0,0.0,False,0,0,1,1,1,1,1,1,1,1,1,1,1,1,1,1,1,1,1,1,True,6.719511985778809,0.0,0.0,0.0,0.0,1.0,0.0,False,1.0,4,0.4249584376811981,31,117.21088409423828,117.21088409423828,117.21088409423828,117.21088409423828,40.0,0,0.008004315197467804,0.008004315197467804,0.0009623052319511771,0.5,0.0,0.0,0.0,20.784610748291016,True,0.0,0.0,0.0,0.0,0.0,"[-0.055389635264873505, 0.002715714741498232, 0.06914463639259338, 0.1005544438958168, 0.13843512535095215, 0.1663665771484375]",0.1663665771484375,5.0142090913141146e-05,0.0030844889115542173,0.0005375107866711915,0.001984699396416545,8.178636198863387e-05,0.031542662531137466,9.80441951751709,-0.11396873742341995,0.026677006855607033,False,False,False,1.0,1.0,0.0,0.0,40.0,0.0,57.96820068359375,117.21087646484375,117.21087646484375,117.21087646484375,117.21087646484375,80.1976547241211,0.0018183746142312884,116.91669464111328,117.21088409423828,63.711761474609375,63.711822509765625,63.735382080078125,67.67233276367188,67.67233276367188,67.67233276367188,1.0,1.0,1.0,80.1976547241211,0.0009088123333640397,116.91716003417969,117.21088409423828,63.73736572265625,63.715179443359375,63.715057373046875,67.67233276367188,67.67233276367188,67.67233276367188,1.0,1.0,1.0,0.0,13.800000190734863,77.03630828857422,6.71999979019165,3.9000000953674316,77.16829681396484,1.2554682493209839,6.624000549316406,1.007921814918518,16.99833869934082,305.37054443359375,58.15000915527344,0.0004950657021254301,116.96227264404297,117.21088409423828,63.744415283203125,63.744415283203125,63.74835205078125,67.6220703125,67.6220703125,67.6220703125,1.0,1.0,1.0,58.15000915527344,0.0002792193554341793,116.96186828613281,117.21088409423828,63.748046875,63.744415283203125,63.74444580078125,67.6220703125,67.6220703125,67.6220703125,1.0,1.0,1.0,0.017088960856199265,-0.0040446920320391655,0.01672615297138691,0.003014715388417244,0.016500895842909813,-0.0005106816533952951,0.016462022438645363,0.000876719132065773,0.017066113650798798,0.018315039575099945,0.027391858398914337,0.02890581637620926
229.55000000007706,55553,0,4,1,268697600,1570.4666666665896,32767,32767,1800.0,32767,0,False,50700.0,False,False,False,False,False,True,120.49807739257812,0.22080183029174805,0.2333020567893982,0.334594190120697,0.3333333432674408,1.0002708435058594,1.0,0.06699933111667633,0.0,0.0,0.0,0,0,3188,3,1,0,0,0,0,0.0,0.0,0,0.0,False,0,0,0,4,False,-0.1365990936756134,0.0,1.0,0.0,0,535.7505493164062,0,-1,4841.1806640625,0.8414220213890076,0,0.0,0.0,0.0,0,0.0,0,0.0,0.0,0.0,False,0.0,0.0,False,0.0,0.0,False,0.0,0.0,False,0.0,0.0,False,0.0009630365530028939,9.45262290770188e-05,1.9034438133239746,-0.002310472773388028,0.005372282117605209,1,34.84418873549317,136.53014611382733,45.87961196899414,26.111114501953125,26.111114501953125,23.88888931274414,1,3,1.1786601543426514,101011.359375,0.44703999161720276,5.4977874755859375,0.46000000834465027,0.0,0.0,1.016387939453125,4.455936431884766,False,True,0.0,0.0,False,0,0,1,1,1,1,1,1,1,1,1,1,1,1,1,1,1,1,1,1,True,6.719511985778809,0.0,0.0,0.0,0.0,1.0,0.0,False,1.0,4,0.4249584376811981,31,117.21088409423828,117.21088409423828,117.21088409423828,117.21088409423828,40.0,0,0.017826881259679794,0.017826881259679794,0.0021668781992048025,0.5,0.0,0.0,0.0,20.784610748291016,True,0.0,0.0,0.0,0.0,0.0,"[0.2145838737487793, 0.27256423234939575, 0.3143010437488556, 0.3229542076587677, 0.3443661332130432, 0.3705247938632965]",0.3705247938632965,6.315720384009182e-05,-0.0008509852923452854,0.00045084746670909226,-2.6336363589507528e-05,-2.2177870050654747e-05,0.02447124570608139,9.805593490600586,-0.20045103132724762,0.02340526133775711,False,False,False,1.0,1.0,0.0,0.0,40.0,0.0,57.96820068359375,117.21087646484375,117.21087646484375,117.21087646484375,117.21087646484375,80.1976547241211,0.00021357501100283116,116.91658020019531,117.21088409423828,63.711395263671875,63.711456298828125,63.7349853515625,67.67233276367188,67.67233276367188,67.67233276367188,1.0,1.0,1.0,80.1976547241211,8.508376777172089e-05,116.91705322265625,117.21088409423828,63.73699951171875,63.714874267578125,63.714752197265625,67.67233276367188,67.67233276367188,67.67233276367188,1.0,1.0,1.0,0.0,13.800000190734863,77.03627014160156,6.71999979019165,3.9000000953674316,77.1684799194336,1.3324470520019531,6.624000549316406,1.007921814918518,16.99833869934082,535.7507934570312,58.15000915527344,7.71910636103712e-05,116.96219635009766,117.21088409423828,63.74407958984375,63.74407958984375,63.748016357421875,67.6220703125,67.6220703125,67.6220703125,1.0,1.0,1.0,58.15000915527344,0.00015480484580621123,116.96178436279297,117.21088409423828,63.7476806640625,63.74407958984375,63.744110107421875,67.6220703125,67.6220703125,67.6220703125,1.0,1.0,1.0,0.016987601295113564,-0.006763532757759094,0.016831915825605392,0.007489882409572601,0.01641525886952877,-0.008185862563550472,0.0165483970195055,0.0076575372368097305,0.017173729836940765,0.01820521056652069,0.027500413358211517,0.028797335922718048
229.56666666674374,55554,0,4,1,268697600,1570.449999999923,32767,32767,1800.0,32767,0,False,50700.0,False,False,False,False,False,True,120.5914306640625,0.2213643193244934,0.2331760972738266,0.334594190120697,0.3333333432674408,0.9991602897644043,1.0,0.06699933111667633,0.0,0.0,0.0,0,0,3188,3,1,0,0,0,0,0.0,0.0,0,0.0,False,0,0,0,4,False,-0.1365990936756134,0.0,1.0,0.0,0,512.0830078125,0,-1,4841.1806640625,0.8414220213890076,0,0.0,0.0,0.0,0,0.0,0,0.0,0.0,0.0,False,0.0,0.0,False,0.0,0.0,False,0.0,0.0,False,0.0,0.0,False,0.004021581262350082,7.33108536223881e-05,1.9034650325775146,-0.0023109472822397947,0.0054337442852556705,1,34.84418873549317,136.53014611382733,45.87961196899414,26.111114501953125,26.111114501953125,23.88888931274414,1,3,1.1786601543426514,101011.359375,0.44703999161720276,5.4977874755859375,0.46000000834465027,0.0,0.0,1.016387939453125,4.455936431884766,False,True,0.0,0.0,False,0,0,1,1,1,1,1,1,1,1,1,1,1,1,1,1,1,1,1,1,True,6.719511985778809,0.0,0.0,0.0,0.0,1.0,0.0,False,1.0,4,0.4249584376811981,31,117.21088409423828,117.21088409423828,117.21088409423828,117.21088409423828,40.0,0,0.007079679053276777,0.007079679053276777,0.0008693462586961687,0.5,0.0,0.0,0.0,20.784610748291016,True,0.0,0.0,0.0,0.0,0.0,"[0.380094975233078, 0.36286669969558716, 0.3194023072719574, 0.2907238006591797, 0.23155143857002258, 0.14714837074279785]",0.14714837074279785,3.778692189371213e-05,-0.003992759622633457,0.0004806107608601451,-0.002227568766102195,-1.2858778973168228e-05,-0.020827317610383034,9.807089805603027,-0.010382547974586487,0.013273552060127258,False,False,False,1.0,1.0,0.0,0.0,40.0,0.0,57.96820068359375,117.21087646484375,117.21087646484375,117.21087646484375,117.21087646484375,80.1976547241211,0.00034469965612515807,116.91648864746094,117.21088409423828,63.711029052734375,63.711090087890625,63.734588623046875,67.67233276367188,67.67233276367188,67.67233276367188,1.0,1.0,1.0,80.1976547241211,0.000689557462465018,116.91696166992188,117.21088409423828,63.736572265625,63.714385986328125,63.7142333984375,67.67233276367188,67.67233276367188,67.67233276367188,1.0,1.0,1.0,0.0,13.800000190734863,77.0362319946289,6.71999979019165,3.9000000953674316,77.16865539550781,1.3893784284591675,6.624000549316406,1.007921814918518,16.99833869934082,512.083251953125,58.15000915527344,0.00024342196411453187,116.96211242675781,117.21088409423828,63.743682861328125,63.743682861328125,63.747650146484375,67.6220703125,67.6220703125,67.6220703125,1.0,1.0,1.0,58.15000915527344,0.0008664514753036201,116.96170806884766,117.21088409423828,63.74725341796875,63.74359130859375,63.743621826171875,67.6220703125,67.6220703125,67.6220703125,1.0,1.0,1.0,0.016898106783628464,-0.002321234904229641,0.01692219451069832,0.0015026198234409094,0.01634206436574459,0.0005025886348448694,0.01661977358162403,1.9158733266522177e-05,0.01718858629465103,0.01819337159395218,0.027514077723026276,0.02878398448228836
229.58333333341042,55555,0,4,1,268697600,1570.4333333332563,32767,32767,1800.0,32767,0,False,50700.0,False,False,False,False,False,True,120.51100158691406,0.22155553102493286,0.2333563268184662,0.334594190120697,0.3333333432674408,0.9980522990226746,1.0,0.06699933111667633,0.0,0.0,0.0,0,0,3188,3,1,0,0,0,0,0.0,0.0,0,0.0,False,0,0,0,4,False,-0.1365990936756134,0.0,1.0,0.0,0,300.0,0,-1,4841.1806640625,0.8414220213890076,0,0.0,0.0,0.0,0,0.0,0,0.0,0.0,0.0,False,0.0,0.0,False,0.0,0.0,False,0.0,0.0,False,0.0,0.0,False,0.0013880819315090775,4.035987876704894e-05,1.9034979343414307,-0.0023108080495148897,0.004849674645811319,1,34.84418873549317,136.53014611382733,45.87961196899414,26.111114501953125,26.111114501953125,23.88888931274414,1,3,1.1786601543426514,101011.359375,0.44703999161720276,5.4977874755859375,0.46000000834465027,0.0,0.0,1.016387939453125,4.455936431884766,False,True,0.0,0.0,False,0,0,1,1,1,1,1,1,1,1,1,1,1,1,1,1,1,1,1,1,True,6.719511985778809,0.0,0.0,0.0,0.0,1.0,0.0,False,1.0,4,0.4249584376811981,31,117.21088409423828,117.21088409423828,117.21088409423828,117.21088409423828,40.0,0,0.007191382814198732,-0.007191382814198732,-0.0008933561039157212,0.5,0.0,0.0,0.0,20.784610748291016,True,0.0,0.0,0.0,0.0,0.0,"[0.09326163679361343, 0.033199578523635864, -0.03404249623417854, -0.06945138424634933, -0.1123821958899498, -0.14947009086608887]",-0.14947009086608887,3.947113509639166e-05,-0.0012818045215681195,0.000532680656760931,-0.0011438688961789012,-6.178530748002231e-05,-0.03920822590589523,9.810073852539062,0.32072001695632935,0.02201741561293602,False,False,False,1.0,1.0,0.0,0.0,40.0,0.0,57.96820068359375,117.21087646484375,117.21087646484375,117.21087646484375,117.21087646484375,80.1976547241211,0.00020861966186203063,116.91639709472656,117.21088409423828,63.710662841796875,63.710723876953125,63.734222412109375,67.67233276367188,67.67233276367188,67.67233276367188,1.0,1.0,1.0,80.1976547241211,0.0004356446152087301,116.91686248779297,117.21088409423828,63.736175537109375,63.713958740234375,63.71380615234375,67.67233276367188,67.67233276367188,67.67233276367188,1.0,1.0,1.0,0.0,13.800000190734863,77.03621673583984,6.71999979019165,3.9000000953674316,77.16873931884766,1.321739673614502,6.624000549316406,1.007921814918518,16.99833869934082,246.0345916748047,58.15000915527344,0.0003009153006132692,116.9620361328125,117.21088409423828,63.7432861328125,63.7432861328125,63.747283935546875,67.6220703125,67.6220703125,67.6220703125,1.0,1.0,1.0,58.15000915527344,0.00023866941046435386,116.96163177490234,117.21088409423828,63.74688720703125,63.743194580078125,63.74322509765625,67.6220703125,67.6220703125,67.6220703125,1.0,1.0,1.0,0.016950329765677452,0.004757884424179792,0.016860229894518852,-0.003678165376186371,0.01640402339398861,0.006454910151660442,0.016559313982725143,-0.006726576015353203,0.01706325262784958,0.01831892877817154,0.02738811820745468,0.028910107910633087
229.6000000000771,55556,0,4,1,268697600,1570.4166666665897,32767,32767,1800.0,32767,0,False,50700.0,False,False,False,False,False,True,120.33656311035156,0.22327351570129395,0.23331227898597717,0.33477234840393066,0.36666667461395264,1.000269889831543,1.0,0.065999336540699,-0.01666666753590107,0.0,0.0,0,0,3188,3,1,0,0,0,0,0.0,0.0,0,0.0,False,0,0,0,4,False,-0.1365990936756134,0.0,1.0,0.0,0,300.0,0,-1,4841.1806640625,0.8414220213890076,0,0.0,0.0,0.0,0,0.0,0,0.0,0.0,0.0,False,0.0,0.0,False,0.0,0.0,False,0.0,0.0,False,0.0,0.0,False,0.003420754801481962,4.834635547013022e-05,1.9034899473190308,-0.0023111330810934305,0.0045366352424025536,1,34.84418873549317,136.53014611382733,45.87961196899414,26.111114501953125,26.111114501953125,23.88888931274414,1,3,1.1786601543426514,101011.359375,0.44703999161720276,5.4977874755859375,0.46000000834465027,0.0,0.0,1.016387939453125,4.455936431884766,False,True,0.0,0.0,False,0,0,1,1,1,1,1,1,1,1,1,1,1,1,1,1,1,1,1,1,True,6.719511985778809,0.0,0.0,0.0,0.0,1.0,0.0,False,1.0,4,0.4249584376811981,31,117.21088409423828,117.21088409423828,117.21088409423828,117.21088409423828,40.0,0,0.002316009718924761,-0.002316009718924761,-0.0002905455476138741,0.5,0.0,0.0,0.0,20.784610748291016,True,0.0,0.0,0.0,0.0,0.0,"[-0.1503496617078781, -0.1473395824432373, -0.138142392039299, -0.10947497189044952, -0.0912822037935257, -0.0481373593211174]",-0.0481373593211174,-3.663065217551775e-05,0.003372511826455593,0.000572475022636354,0.002049777191132307,-5.3901476348983124e-05,0.0096194539219141,9.799129486083984,0.24542179703712463,0.004925878718495369,False,False,False,1.0,1.0,0.0,0.0,40.0,0.0,57.96820068359375,117.21087646484375,117.21087646484375,117.21087646484375,117.21087646484375,80.1976547241211,0.00106257654260844,116.91630554199219,117.21088409423828,63.71014404296875,63.710205078125,63.7337646484375,67.67233276367188,67.67233276367188,67.67233276367188,1.0,1.0,1.0,80.1976547241211,0.00020608591148629785,116.9167709350586,117.21088409423828,63.735809326171875,63.71356201171875,63.713409423828125,67.67233276367188,67.67233276367188,67.67233276367188,1.0,1.0,1.0,0.0,13.800000190734863,77.03620147705078,6.71999979019165,3.9000000953674316,77.1688232421875,1.2674084901809692,6.624000549316406,1.007921814918518,16.99833869934082,252.29385375976562,58.15000915527344,0.00033698257175274193,116.96195983886719,117.21088409423828,63.742889404296875,63.742889404296875,63.746917724609375,67.6220703125,67.6220703125,67.6220703125,1.0,1.0,1.0,58.15000915527344,0.0006766603910364211,116.96155548095703,117.21088409423828,63.746490478515625,63.74273681640625,63.742767333984375,67.6220703125,67.6220703125,67.6220703125,1.0,1.0,1.0,0.01706823892891407,0.002615097677335143,0.01675102487206459,-0.0008210436208173633,0.01648196391761303,0.0023491750471293926,0.01647542230784893,-0.0022785670589655638,0.016996100544929504,0.018387258052825928,0.02732088416814804,0.02897600084543228
229.61666666674378,55557,0,4,1,268697600,1570.3999999999228,32767,32767,1800.0,32767,0,False,50700.0,False,False,False,False,False,True,120.46819305419922,0.22303251922130585,0.2346240133047104,0.33477234840393066,0.36666667461395264,0.9991594552993774,1.0,0.065999336540699,-0.01666666753590107,0.0,0.0,0,0,3188,3,1,0,0,0,0,0.0,0.0,0,0.0,False,0,0,0,4,False,-0.1365990936756134,0.0,1.0,0.0,0,344.8506774902344,0,-1,4841.1806640625,0.8414220213890076,0,0.0,0.0,0.0,0,0.0,0,0.0,0.0,0.0,False,0.0,0.0,False,0.0,0.0,False,0.0,0.0,False,0.0,0.0,False,0.002413863781839609,8.590335346525535e-05,1.9034523963928223,-0.002310313517227769,0.004965029191225767,1,34.84418873549317,136.53014611382733,45.87961196899414,26.111114501953125,26.111114501953125,23.88888931274414,1,3,1.1786601543426514,101011.359375,0.44703999161720276,5.4977874755859375,0.46000000834465027,0.0,0.0,1.016387939453125,4.455936431884766,False,True,0.0,0.0,False,0,0,1,1,1,1,1,1,1,1,1,1,1,1,1,1,1,1,1,1,True,6.719511985778809,0.0,0.0,0.0,0.0,1.0,0.0,False,1.0,4,0.4249584376811981,31,117.21088409423828,117.21088409423828,117.21088409423828,117.21088409423828,40.0,0,0.010824151337146759,0.010824151337146759,0.0013730085920542479,0.5,0.0,0.0,0.0,20.784610748291016,True,0.0,0.0,0.0,0.0,0.0,"[0.01557448785752058, 0.05355950444936752, 0.09797808527946472, 0.15398184955120087, 0.18178601562976837, 0.22497577965259552]",0.22497577965259552,-4.149951200815849e-05,0.002353510120883584,0.0005364035023376346,0.0016952177975326777,7.719751010881737e-05,0.03186248615384102,9.805617332458496,-0.16498292982578278,0.008705616928637028,False,False,False,1.0,1.0,0.0,0.0,40.0,0.0,57.96820068359375,117.21087646484375,117.21087646484375,117.21087646484375,117.21087646484375,80.1976547241211,0.0013099632924422622,116.91619110107422,117.21088409423828,63.709564208984375,63.709625244140625,63.733306884765625,67.67233276367188,67.67233276367188,67.67233276367188,1.0,1.0,1.0,80.1976547241211,0.00040850992081686854,116.91666412353516,117.21088409423828,63.73541259765625,63.713134765625,63.712982177734375,67.67233276367188,67.67233276367188,67.67233276367188,1.0,1.0,1.0,0.0,13.800000190734863,77.03617858886719,6.71999979019165,3.9000000953674316,77.1689453125,1.265550971031189,6.624000549316406,1.007921814918518,16.99833869934082,344.8507995605469,58.15000915527344,0.0005589337088167667,116.96188354492188,117.21088409423828,63.742431640625,63.742431640625,63.74652099609375,67.6220703125,67.6220703125,67.6220703125,1.0,1.0,1.0,58.15000915527344,0.00039838391239754856,116.96147155761719,117.21088409423828,63.74609375,63.742340087890625,63.74237060546875,67.6220703125,67.6220703125,67.6220703125,1.0,1.0,1.0,0.017075929790735245,-0.0052793086506426334,0.016737082973122597,0.005011419299989939,0.016497550532221794,-0.0020265739876776934,0.01646733470261097,0.0026296405121684074,0.017087101936340332,0.018293097615242004,0.027413703501224518,0.02888571470975876
229.63333333341046,55558,0,4,1,268697600,1570.3833333332561,32767,32767,1800.0,32767,0,False,50700.0,False,False,False,False,False,True,120.48281860351562,0.22285062074661255,0.2347264140844345,0.33477234840393066,0.36666667461395264,0.9980514049530029,1.0,0.065999336540699,-0.01666666753590107,0.0,0.0,0,0,3188,3,1,0,0,0,0,0.0,0.0,0,0.0,False,0,0,0,4,False,-0.1365990936756134,0.0,1.0,0.0,0,555.6161499023438,0,-1,4841.1806640625,0.8414220213890076,0,0.0,0.0,0.0,0,0.0,0,0.0,0.0,0.0,False,0.0,0.0,False,0.0,0.0,False,0.0,0.0,False,0.0,0.0,False,0.0013447580859065056,9.784787835087627e-05,1.9034404754638672,-0.0023103030398488045,0.005443527828902006,1,34.84418873549317,136.53014611382733,45.87961196899414,26.111114501953125,26.111114501953125,23.88888931274414,1,3,1.1786601543426514,101011.359375,0.44703999161720276,5.4977874755859375,0.46000000834465027,0.0,0.0,1.016387939453125,4.455936431884766,False,True,0.0,0.0,False,0,0,1,1,1,1,1,1,1,1,1,1,1,1,1,1,1,1,1,1,True,6.719511985778809,0.0,0.0,0.0,0.0,1.0,0.0,False,1.0,4,0.4249584376811981,31,117.21088409423828,117.21088409423828,117.21088409423828,117.21088409423828,40.0,0,0.017709217965602875,0.017709217965602875,0.002269088989123702,0.5,0.0,0.0,0.0,20.784610748291016,True,0.0,0.0,0.0,0.0,0.0,"[0.2625414729118347, 0.2764345705509186, 0.3058978319168091, 0.3426024317741394, 0.3659674823284149, 0.36807918548583984]",0.36807918548583984,-2.1752370230387896e-05,-0.00124777527526021,0.000501429196447134,-0.0004366427892819047,-4.0659837395651266e-05,0.018853995949029922,9.80490779876709,-0.17873887717723846,0.02195786125957966,False,False,False,1.0,1.0,0.0,0.0,40.0,0.0,57.96820068359375,117.21087646484375,117.21087646484375,117.21087646484375,117.21087646484375,80.1976547241211,0.00027138221776112914,116.91609954833984,117.21088409423828,63.709197998046875,63.709259033203125,63.73291015625,67.67233276367188,67.67233276367188,67.67233276367188,1.0,1.0,1.0,80.1976547241211,0.000319326703902334,116.91656494140625,117.21088409423828,63.735015869140625,63.7127685546875,63.712615966796875,67.67233276367188,67.67233276367188,67.67233276367188,1.0,1.0,1.0,0.0,13.800000190734863,77.03614044189453,6.71999979019165,3.9000000953674316,77.16913604736328,1.3479228019714355,6.624000549316406,1.007921814918518,16.99833869934082,555.6163330078125,58.15000915527344,2.9249515591800446e-06,116.96179962158203,117.21088409423828,63.74212646484375,63.74212646484375,63.7462158203125,67.6220703125,67.6220703125,67.6220703125,1.0,1.0,1.0,58.15000915527344,3.517220829962753e-05,116.96139526367188,117.21088409423828,63.745758056640625,63.74200439453125,63.742034912109375,67.6220703125,67.6220703125,67.6220703125,1.0,1.0,1.0,0.016965942457318306,-0.006626985501497984,0.016855498775839806,0.0072797005996108055,0.016390008851885796,-0.007505784276872873,0.01657256670296192,0.007009782362729311,0.017189398407936096,0.01818995177745819,0.027516938745975494,0.028782077133655548
229.65000000007714,55559,0,4,1,268697600,1570.3666666665895,32767,32767,1800.0,32767,0,False,50700.0,False,False,False,False,False,True,120.51683807373047,0.22158852219581604,0.2346321940422058,0.33476436138153076,0.3333333432674408,1.0002690553665161,1.0,0.065999336540699,0.0,0.0,0.0,0,0,3188,3,1,0,0,0,0,0.0,0.0,0,0.0,False,0,0,0,4,False,-0.1365990936756134,0.0,1.0,0.0,0,474.4308776855469,0,-1,4841.1806640625,0.8414220213890076,0,0.0,0.0,0.0,0,0.0,0,0.0,0.0,0.0,False,0.0,0.0,False,0.0,0.0,False,0.0,0.0,False,0.0,0.0,False,0.0034441787283867598,7.0381116529461e-05,1.9034680128097534,-0.0023106911685317755,0.005363633390516043,1,34.84418873549317,136.53014611382733,45.87961196899414,26.111114501953125,26.111114501953125,23.88888931274414,1,3,1.1786601543426514,101011.359375,0.44703999161720276,5.4977874755859375,0.46000000834465027,0.0,0.0,1.016387939453125,4.455936431884766,False,True,0.0,0.0,False,0,0,1,1,1,1,1,1,1,1,1,1,1,1,1,1,1,1,1,1,True,6.719511985778809,0.0,0.0,0.0,0.0,1.0,0.0,False,1.0,4,0.4249584376811981,31,117.21088409423828,117.21088409423828,117.21088409423828,117.21088409423828,40.0,0,0.0033199370373040438,0.0033199370373040438,0.00042963598389178514,0.5,0.0,0.0,0.0,20.784610748291016,True,0.0,0.0,0.0,0.0,0.0,"[0.35068249702453613, 0.31481748819351196, 0.26128798723220825, 0.21716555953025818, 0.15203410387039185, 0.06900359690189362]",0.06900359690189362,-4.049405106343329e-05,-0.003408997319638729,0.0004910245188511908,-0.002375283045694232,1.435493140888866e-05,-0.028311796486377716,9.809861183166504,0.07622193545103073,0.00988385733217001,False,False,False,1.0,1.0,0.0,0.0,40.0,0.0,57.96820068359375,117.21087646484375,117.21087646484375,117.21087646484375,117.21087646484375,80.1976547241211,0.0003822595172096044,116.91600799560547,117.21088409423828,63.708770751953125,63.708831787109375,63.732513427734375,67.67233276367188,67.67233276367188,67.67233276367188,1.0,1.0,1.0,80.1976547241211,0.0006638212944380939,116.91647338867188,117.21088409423828,63.734588623046875,63.712310791015625,63.712158203125,67.67233276367188,67.67233276367188,67.67233276367188,1.0,1.0,1.0,0.0,13.800000190734863,77.0361099243164,6.71999979019165,3.9000000953674316,77.16930389404297,1.3883960247039795,6.624000549316406,1.007921814918518,16.99833869934082,474.4310607910156,58.15000915527344,0.00034181386581622064,116.96172332763672,117.21088409423828,63.741729736328125,63.741729736328125,63.745849609375,67.6220703125,67.6220703125,67.6220703125,1.0,1.0,1.0,58.15000915527344,0.0004823076887987554,116.96131896972656,117.21088409423828,63.745361328125,63.7415771484375,63.741607666015625,67.6220703125,67.6220703125,67.6220703125,1.0,1.0,1.0,0.01689162850379944,-0.0005549045163206756,0.016925711184740067,-0.0006133066490292549,0.016344472765922546,0.0019323870074003935,0.016619747504591942,-0.001337704947218299,0.017173729836940765,0.01820807158946991,0.027498982846736908,0.02879931777715683
229.66666666674382,55560,0,4,1,268697600,1570.3499999999228,32767,32767,1800.0,32767,0,False,50700.0,False,False,False,False,False,True,120.45154571533203,0.22056840360164642,0.23162367939949036,0.33476436138153076,0.3333333432674408,0.9991585612297058,1.0,0.065999336540699,0.0,0.0,0.0,0,0,3188,3,1,0,0,0,0,0.0,0.0,0,0.0,False,0,0,0,4,False,-0.1365990936756134,0.0,1.0,0.0,0,300.0,0,-1,4841.1806640625,0.8414220213890076,0,0.0,0.0,0.0,0,0.0,0,0.0,0.0,0.0,False,0.0,0.0,False,0.0,0.0,False,0.0,0.0,False,0.0,0.0,False,0.000526422169059515,3.9316444599535316e-05,1.9034990072250366,-0.002310933079570532,0.004738389514386654,1,34.84418873549317,136.53014611382733,45.87961196899414,26.111114501953125,26.111114501953125,23.88888931274414,1,3,1.1786601543426514,101011.359375,0.44703999161720276,5.4977874755859375,0.46000000834465027,0.0,0.0,1.016387939453125,4.455936431884766,False,True,0.0,0.0,False,0,0,1,1,1,1,1,1,1,1,1,1,1,1,1,1,1,1,1,1,True,6.719511985778809,0.0,0.0,0.0,0.0,1.0,0.0,False,1.0,4,0.4249584376811981,31,117.21088409423828,117.21088409423828,117.21088409423828,117.21088409423828,40.0,0,0.008303027600049973,-0.008303027600049973,-0.0010861323680728674,0.5,0.0,0.0,0.0,20.784610748291016,True,0.0,0.0,0.0,0.0,0.0,"[0.020357968285679817, -0.0345078706741333, -0.06682287156581879, -0.10193874686956406, -0.14091220498085022, -0.1725751906633377]",-0.1725751906633377,-4.401262413011864e-05,1.4346457646752242e-05,0.0005262266495265067,-0.0008534467197023332,-8.086862362688407e-05,-0.03558271750807762,9.809366226196289,0.32661503553390503,0.02221865952014923,False,False,False,1.0,1.0,0.0,0.0,40.0,0.0,57.96820068359375,117.21087646484375,117.21087646484375,117.21087646484375,117.21087646484375,80.1976547241211,0.0001352256367681548,116.91590881347656,117.21088409423828,63.70843505859375,63.70849609375,63.732147216796875,67.67233276367188,67.67233276367188,67.67233276367188,1.0,1.0,1.0,80.1976547241211,0.0001328520884271711,116.9163818359375,117.21088409423828,63.734222412109375,63.71197509765625,63.711822509765625,67.67233276367188,67.67233276367188,67.67233276367188,1.0,1.0,1.0,0.0,13.800000190734863,77.03609466552734,6.71999979019165,3.9000000953674316,77.16938018798828,1.3137264251708984,6.624000549316406,1.007921814918518,16.99833869934082,231.9744110107422,58.15000915527344,0.0002871385950129479,116.9616470336914,117.21088409423828,63.7413330078125,63.7413330078125,63.7454833984375,67.6220703125,67.6220703125,67.6220703125,1.0,1.0,1.0,58.15000915527344,0.00018770783208310604,116.96124267578125,117.21088409423828,63.7449951171875,63.741180419921875,63.7412109375,67.6220703125,67.6220703125,67.6220703125,1.0,1.0,1.0,0.016967713832855225,0.004643448628485203,0.01684393547475338,-0.00338282180018723,0.01642332412302494,0.006415915209800005,0.01653905399143696,-0.006966676563024521,0.017039813101291656,0.018343321979045868,0.027364276349544525,0.028932996094226837
229.6833333334105,55561,0,4,1,268697600,1570.3333333332562,32767,32767,1800.0,32767,0,False,50700.0,False,False,False,False,False,True,120.46619415283203,0.22051848471164703,0.23222067952156067,0.33476436138153076,0.3333333432674408,0.9980505704879761,1.0,0.065999336540699,0.0,0.0,0.0,0,0,3188,3,1,0,0,0,0,0.0,0.0,0,0.0,False,0,0,0,4,False,-0.1365990936756134,0.0,1.0,0.0,0,300.0,0,-1,4841.1806640625,0.8414220213890076,0,0.0,0.0,0.0,0,0.0,0,0.0,0.0,0.0,False,0.0,0.0,False,0.0,0.0,False,0.0,0.0,False,0.0,0.0,False,0.0038904817774891853,5.307582250679843e-05,1.9034852981567383,-0.0023112217895686626,0.004577025305479765,1,34.84418873549317,136.53014611382733,45.87961196899414,26.111114501953125,26.111114501953125,23.88888931274414,1,3,1.1786601543426514,101011.359375,0.44703999161720276,5.4977874755859375,0.46000000834465027,0.0,0.0,1.016387939453125,4.455936431884766,False,True,0.0,0.0,False,0,0,1,1,1,1,1,1,1,1,1,1,1,1,1,1,1,1,1,1,True,6.719511985778809,0.0,0.0,0.0,0.0,1.0,0.0,False,1.0,4,0.4249584376811981,31,117.21088409423828,117.21088409423828,117.21088409423828,117.21088409423828,40.0,0,0.0015654726885259151,0.0015654726885259151,0.00020667425997089595,0.5,0.0,0.0,0.0,20.784610748291016,True,0.0,0.0,0.0,0.0,0.0,"[-0.15204913914203644, -0.12414541095495224, -0.09682394564151764, -0.08844579756259918, -0.036314480006694794, 0.03253773972392082]",0.03253773972392082,-0.00013851976837031543,0.003855764400213957,0.0005185849731788039,0.0021042029839009047,-4.9010526709025726e-05,0.01790734939277172,9.803536415100098,0.1286754310131073,0.010120161809027195,False,False,False,1.0,1.0,0.0,0.0,40.0,0.0,57.96820068359375,117.21087646484375,117.21087646484375,117.21087646484375,117.21087646484375,80.1976547241211,0.0008796048350632191,116.91581726074219,117.21088409423828,63.707916259765625,63.707977294921875,63.731689453125,67.67233276367188,67.67233276367188,67.67233276367188,1.0,1.0,1.0,80.1976547241211,0.00037713046185672283,116.91626739501953,117.21088409423828,63.73382568359375,63.711517333984375,63.711395263671875,67.67233276367188,67.67233276367188,67.67233276367188,1.0,1.0,1.0,0.0,13.800000190734863,77.03607177734375,6.71999979019165,3.9000000953674316,77.16947174072266,1.2672522068023682,6.624000549316406,1.007921814918518,16.99833869934082,265.6056213378906,58.15000915527344,9.233170567313209e-05,116.9615707397461,117.21088409423828,63.740997314453125,63.740997314453125,63.745147705078125,67.6220703125,67.6220703125,67.6220703125,1.0,1.0,1.0,58.15000915527344,0.0007974192849360406,116.9611587524414,117.21088409423828,63.74456787109375,63.740692138671875,63.74072265625,67.6220703125,67.6220703125,67.6220703125,1.0,1.0,1.0,0.01708519086241722,-0.0002684952924028039,0.016735084354877472,0.002096284180879593,0.016488945111632347,0.0020593665540218353,0.016469571739435196,-0.0018528004875406623,0.017005085945129395,0.0183781236410141,0.027329139411449432,0.028967492282390594
229.70000000007718,55562,0,4,1,268697600,1570.3166666665895,32767,32767,1800.0,32767,0,False,50700.0,False,False,False,False,False,True,120.58979034423828,0.22069677710533142,0.2306232452392578,0.33475640416145325,0.3333333432674408,1.0002681016921997,1.0,0.065999336540699,0.0,0.0,0.0,0,0,3188,3,1,0,0,0,0,0.0,0.0,0,0.0,False,0,0,0,4,False,-0.1365990936756134,0.0,1.0,0.0,0,391.8877258300781,0,-1,4841.1806640625,0.8414220213890076,0,0.0,0.0,0.0,0,0.0,0,0.0,0.0,0.0,False,0.0,0.0,False,0.0,0.0,False,0.0,0.0,False,0.0,0.0,False,0.0015727743739262223,8.508868631906807e-05,1.9034532308578491,-0.0023103412240743637,0.005055481102317572,1,34.84418873549317,136.53014611382733,45.87961196899414,26.111114501953125,26.111114501953125,23.88888931274414,1,3,1.1786601543426514,101011.359375,0.44703999161720276,5.4977874755859375,0.46000000834465027,0.0,0.0,1.016387939453125,4.455936431884766,False,True,0.0,0.0,False,0,0,1,1,1,1,1,1,1,1,1,1,1,1,1,1,1,1,1,1,True,6.719511985778809,0.0,0.0,0.0,0.0,1.0,0.0,False,1.0,4,0.4249584376811981,31,117.21088409423828,117.21088409423828,117.21088409423828,117.21088409423828,40.0,0,0.013024643063545227,0.013024643063545227,0.0017384215025231242,0.5,0.0,0.0,0.0,20.784610748291016,True,0.0,0.0,0.0,0.0,0.0,"[0.06997791677713394, 0.11258356273174286, 0.1655820608139038, 0.1887514293193817, 0.23514728248119354, 0.27071213722229004]",0.27071213722229004,-0.00011926684965146706,0.0014762869104743004,0.0005423983675427735,0.0012114266864955425,4.4401433115126565e-05,0.03165745735168457,9.80777645111084,-0.1736661195755005,0.010261723771691322,False,False,False,1.0,1.0,0.0,0.0,40.0,0.0,57.96820068359375,117.21087646484375,117.21087646484375,117.21087646484375,117.21087646484375,80.1976547241211,0.0011406890116631985,116.91571044921875,117.21088409423828,63.70733642578125,63.7073974609375,63.731231689453125,67.67233276367188,67.67233276367188,67.67233276367188,1.0,1.0,1.0,80.1976547241211,0.00021279048814903945,116.91617584228516,117.21088409423828,63.733428955078125,63.711151123046875,63.711029052734375,67.67233276367188,67.67233276367188,67.67233276367188,1.0,1.0,1.0,0.0,13.800000190734863,77.03604125976562,6.71999979019165,3.9000000953674316,77.16960144042969,1.2861992120742798,6.624000549316406,1.007921814918518,16.99833869934082,391.88787841796875,58.15000915527344,0.0006452772649936378,116.96148681640625,117.21088409423828,63.74053955078125,63.74053955078125,63.7447509765625,67.6220703125,67.6220703125,67.6220703125,1.0,1.0,1.0,58.15000915527344,0.0003892773820552975,116.9610824584961,117.21088409423828,63.744171142578125,63.74029541015625,63.740325927734375,67.6220703125,67.6220703125,67.6220703125,1.0,1.0,1.0,0.017060192301869392,-0.006046843249350786,0.016753049567341805,0.006311954464763403,0.016489634290337563,-0.00395813025534153,0.016476333141326904,0.004351512063294649,0.017105624079704285,0.018273480236530304,0.027433328330516815,0.028865300118923187
229.71666666674386,55563,0,4,1,268697600,1570.2999999999229,32767,32767,1800.0,32767,0,False,50700.0,False,False,False,False,False,True,120.53970336914062,0.22081467509269714,0.23076149821281433,0.33475640416145325,0.3333333432674408,0.9991576671600342,1.0,0.06699933111667633,0.0,0.0,0.0,0,0,3188,3,1,0,0,0,0,0.0,0.0,0,0.0,False,0,0,0,4,False,-0.1365990936756134,0.0,1.0,0.0,0,564.691162109375,0,-1,4841.1806640625,0.8414220213890076,0,0.0,0.0,0.0,0,0.0,0,0.0,0.0,0.0,False,0.0,0.0,False,0.0,0.0,False,0.0,0.0,False,0.0,0.0,False,0.0025288648903369904,8.944416913436726e-05,1.9034489393234253,-0.0023105524014681578,0.00548356119543314,1,34.84418873549317,136.53014611382733,45.87961196899414,26.111114501953125,26.111114501953125,23.88888931274414,1,3,1.1786601543426514,101011.359375,0.44703999161720276,5.4977874755859375,0.46000000834465027,0.0,0.0,1.016387939453125,4.455936431884766,False,True,0.0,0.0,False,0,0,1,1,1,1,1,1,1,1,1,1,1,1,1,1,1,1,1,1,True,6.719511985778809,0.0,0.0,0.0,0.0,1.0,0.0,False,1.0,4,0.4249584376811981,31,117.21088409423828,117.21088409423828,117.21088409423828,117.21088409423828,40.0,0,0.016399087384343147,0.016399087384343147,0.002208989579230547,0.5,0.0,0.0,0.0,20.784610748291016,True,0.0,0.0,0.0,0.0,0.0,"[0.3087267279624939, 0.34114140272140503, 0.3451557159423828, 0.3486788868904114, 0.35468196868896484, 0.3408486545085907]",0.3408486545085907,-9.23715197131969e-05,-0.0024705282412469387,0.000540044333320111,-0.000881034939084202,-5.10298486915417e-05,0.011275209486484528,9.806370735168457,-0.1854059100151062,0.033660680055618286,False,False,False,1.0,1.0,0.0,0.0,40.0,0.0,57.96820068359375,117.21087646484375,117.21087646484375,117.21087646484375,117.21087646484375,80.1976547241211,0.00028626190032809973,116.91561126708984,117.21088409423828,63.70697021484375,63.70703125,63.7308349609375,67.67233276367188,67.67233276367188,67.67233276367188,1.0,1.0,1.0,80.1976547241211,0.00016505812527611852,116.91608428955078,117.21088409423828,63.733062744140625,63.710784912109375,63.710662841796875,67.67233276367188,67.67233276367188,67.67233276367188,1.0,1.0,1.0,0.0,13.800000190734863,77.03600311279297,6.71999979019165,3.9000000953674316,77.16979217529297,1.3685585260391235,6.624000549316406,1.007921814918518,16.99833869934082,564.6913452148438,58.15000915527344,0.0009004769381135702,116.96141052246094,117.21088409423828,63.740020751953125,63.740020751953125,63.74432373046875,67.6220703125,67.6220703125,67.6220703125,1.0,1.0,1.0,58.15000915527344,0.00013909545668866485,116.96100616455078,117.21088409423828,63.743804931640625,63.739959716796875,63.739990234375,67.6220703125,67.6220703125,67.6220703125,1.0,1.0,1.0,0.016948837786912918,-0.0061937724240124226,0.0168745256960392,0.00643081683665514,0.016371814534068108,-0.006036443170160055,0.016590096056461334,0.005656483117491007,0.017198525369167328,0.018181368708610535,0.027525044977664948,0.02877333015203476
229.73333333341054,55564,0,4,1,268697600,1570.283333333256,32767,32767,1800.0,32767,0,False,50700.0,False,False,False,False,False,True,120.49929809570312,0.22139517962932587,0.23052802681922913,0.33475640416145325,0.3333333432674408,0.9980496764183044,1.0,0.065999336540699,0.0,0.0,0.0,0,0,3188,3,1,0,0,0,0,0.0,0.0,0,0.0,False,0,0,0,4,False,-0.1365990936756134,0.0,1.0,0.0,0,427.40203857421875,0,-1,4841.1806640625,0.8414220213890076,0,0.0,0.0,0.0,0,0.0,0,0.0,0.0,0.0,False,0.0,0.0,False,0.0,0.0,False,0.0,0.0,False,0.0,0.0,False,0.0034874698612838984,5.975085514364764e-05,1.9034786224365234,-0.002310695592314005,0.00526700122281909,1,34.84418873549317,136.53014611382733,45.87961196899414,26.111114501953125,26.111114501953125,23.88888931274414,1,3,1.1786601543426514,101011.359375,0.44703999161720276,5.4977874755859375,0.46000000834465027,0.0,0.0,1.016387939453125,4.455936431884766,False,True,0.0,0.0,False,0,0,1,1,1,1,1,1,1,1,1,1,1,1,1,1,1,1,1,1,True,6.719511985778809,0.0,0.0,0.0,0.0,1.0,0.0,False,1.0,4,0.4249584376811981,31,117.21088409423828,117.21088409423828,117.21088409423828,117.21088409423828,40.0,0,0.0007000587065704167,0.0007000587065704167,9.52503687585704e-05,0.5,0.0,0.0,0.0,20.784610748291016,True,0.0,0.0,0.0,0.0,0.0,"[0.3106667995452881, 0.281808078289032, 0.20811524987220764, 0.12199561297893524, 0.07114817202091217, 0.014550447463989258]",0.014550447463989258,-0.00010585005657048896,-0.003446427406743169,0.0005334648885764182,-0.002073389245197177,3.996662053395994e-05,-0.03373041749000549,9.806219100952148,0.16412797570228577,0.03269737958908081,False,False,False,1.0,1.0,0.0,0.0,40.0,0.0,57.96820068359375,117.21087646484375,117.21087646484375,117.21087646484375,117.21087646484375,80.1976547241211,0.0011877573560923338,116.91551971435547,117.21088409423828,63.706390380859375,63.706451416015625,63.730377197265625,67.67233276367188,67.67233276367188,67.67233276367188,1.0,1.0,1.0,80.1976547241211,0.00020873924950137734,116.9159927368164,117.21088409423828,63.732696533203125,63.710418701171875,63.710296630859375,67.67233276367188,67.67233276367188,67.67233276367188,1.0,1.0,1.0,0.0,13.800000190734863,77.03597259521484,6.71999979019165,3.9000000953674316,77.16993713378906,1.3872212171554565,6.624000549316406,1.007921814918518,16.99833869934082,427.4022216796875,58.15000915527344,0.0009026936604641378,116.96133422851562,117.21088409423828,63.739501953125,63.739501953125,63.743896484375,67.6220703125,67.6220703125,67.6220703125,1.0,1.0,1.0,58.15000915527344,8.179504220606759e-05,116.96092987060547,117.21088409423828,63.74346923828125,63.7396240234375,63.739654541015625,67.6220703125,67.6220703125,67.6220703125,1.0,1.0,1.0,0.01689491793513298,0.0012637103209272027,0.016919132322072983,-0.0024941323790699244,0.016352832317352295,0.002867725444957614,0.016612347215414047,-0.0027264156378805637,0.01715315878391266,0.01822960376739502,0.027478553354740143,0.028819911181926727
229.75000000007722,55565,0,4,1,268697600,1570.2666666665893,32767,32767,1800.0,32767,0,False,50700.0,False,False,False,False,False,True,120.46558380126953,0.22151628136634827,0.23052291572093964,0.33475640416145325,0.3333333432674408,0.9969441294670105,1.0,0.06699933111667633,0.0,0.0,0.0,0,0,3188,3,1,0,0,0,0,0.0,0.0,0,0.0,False,0,0,0,4,False,-0.1365990936756134,0.0,1.0,0.0,0,300.0,0,-1,4841.1806640625,0.8414220213890076,0,0.0,0.0,0.0,0,0.0,0,0.0,0.0,0.0,False,0.0,0.0,False,0.0,0.0,False,0.0,0.0,False,0.0,0.0,False,0.0009136367589235306,3.884963007294573e-05,1.9034994840621948,-0.002310824813321233,0.0046420167200267315,1,34.84418873549317,136.53014611382733,45.87961196899414,26.111114501953125,26.111114501953125,23.88888931274414,1,3,1.1786601543426514,101011.359375,0.44703999161720276,5.4977874755859375,0.46000000834465027,0.0,0.0,1.016387939453125,4.455936431884766,False,True,0.0,0.0,False,0,0,1,1,1,1,1,1,1,1,1,1,1,1,1,1,1,1,1,1,True,6.719511985778809,0.0,0.0,0.0,0.0,1.0,0.0,False,1.0,4,0.4249584376811981,31,117.21088409423828,117.21088409423828,117.21088409423828,117.21088409423828,40.0,0,0.007123066112399101,-0.007123066112399101,-0.0009788516908884048,0.5,0.0,0.0,0.0,20.784610748291016,True,0.0,0.0,0.0,0.0,0.0,"[-0.05074562504887581, -0.08660559356212616, -0.10975608974695206, -0.14016234874725342, -0.1687186062335968, -0.14805015921592712]",-0.14805015921592712,-9.921181481331587e-05,0.0007049819105304778,0.0005811476148664951,-4.808582048099197e-07,-5.0822018238250166e-05,-0.028152404353022575,9.80654525756836,0.3468025326728821,0.026609772816300392,False,False,False,1.0,1.0,0.0,0.0,40.0,0.0,57.96820068359375,117.21087646484375,117.21087646484375,117.21087646484375,117.21087646484375,80.1976547241211,0.0012384329456835985,116.9154281616211,117.21088409423828,63.705810546875,63.70587158203125,63.72991943359375,67.67233276367188,67.67233276367188,67.67233276367188,1.0,1.0,1.0,80.1976547241211,9.927833161782473e-06,116.9158935546875,117.21088409423828,63.73236083984375,63.71014404296875,63.71002197265625,67.67233276367188,67.67233276367188,67.67233276367188,1.0,1.0,1.0,0.0,13.800000190734863,77.03595733642578,6.71999979019165,3.9000000953674316,77.17001342773438,1.3145804405212402,6.624000549316406,1.007921814918518,16.99833869934082,235.58343505859375,58.15000915527344,0.00026729641831479967,116.96127319335938,117.21088409423828,63.739105224609375,63.739105224609375,63.7435302734375,67.6220703125,67.6220703125,67.6220703125,1.0,1.0,1.0,58.15000915527344,0.0001216906457557343,116.96084594726562,117.21088409423828,63.743133544921875,63.739288330078125,63.73931884765625,67.6220703125,67.6220703125,67.6220703125,1.0,1.0,1.0,0.016986994072794914,0.005320793483406305,0.01682693138718605,-0.0043944926001131535,0.016442058607935905,0.005442236550152302,0.01651911437511444,-0.005971177946776152,0.01701883226633072,0.01836422085762024,0.027343370020389557,0.028954066336154938
229.7666666667439,55566,0,4,1,268697600,1570.2499999999227,32767,32767,1800.0,32767,0,False,50700.0,False,False,False,False,False,True,120.46993255615234,0.22098347544670105,0.23060892522335052,0.3347484767436981,0.3333333432674408,0.9991567730903625,1.0,0.06699933111667633,0.01666666753590107,0.0,0.0,0,0,3188,3,1,0,0,0,0,0.0,0.0,0,0.0,False,0,0,0,4,False,-0.1365990936756134,0.0,1.0,0.0,0,300.0,0,-1,4841.1806640625,0.8414220213890076,0,0.0,0.0,0.0,0,0.0,0,0.0,0.0,0.0,False,0.0,0.0,False,0.0,0.0,False,0.0,0.0,False,0.0,0.0,False,0.003964169882237911,6.440330616896972e-05,1.903473973274231,-0.002310789655894041,0.004644499626010656,1,34.84418873549317,136.53014611382733,45.87961196899414,26.111114501953125,26.111114501953125,23.88888931274414,1,3,1.1786601543426514,101011.359375,0.44703999161720276,5.4977874755859375,0.46000000834465027,0.0,0.0,1.016387939453125,4.455936431884766,False,True,0.0,0.0,False,0,0,1,1,1,1,1,1,1,1,1,1,1,1,1,1,1,1,1,1,True,6.719511985778809,0.0,0.0,0.0,0.0,1.0,0.0,False,1.0,4,0.4249584376811981,31,117.21088409423828,117.21088409423828,117.21088409423828,117.21088409423828,40.0,0,0.0030851273331791162,0.0030851273331791162,0.0004277130647096783,0.5,0.0,0.0,0.0,20.784610748291016,True,0.0,0.0,0.0,0.0,0.0,"[-0.11555606126785278, -0.11464609950780869, -0.08729926496744156, -0.03270000219345093, 0.032850585877895355, 0.06412316858768463]",0.06412316858768463,-0.00018708095012698323,0.003925033379346132,0.0005556573742069304,0.002394170267507434,-1.7047132132574916e-05,0.024614647030830383,9.808099746704102,0.06835029274225235,0.028010454028844833,False,False,False,1.0,1.0,0.0,0.0,40.0,0.0,57.96820068359375,117.21087646484375,117.21087646484375,117.21087646484375,117.21087646484375,80.1976547241211,0.0006534710410051048,116.91532135009766,117.21088409423828,63.705352783203125,63.705413818359375,63.7294921875,67.67233276367188,67.67233276367188,67.67233276367188,1.0,1.0,1.0,80.1976547241211,0.0016559921205043793,116.91581726074219,117.21088409423828,63.73187255859375,63.70947265625,63.7093505859375,67.67233276367188,67.67233276367188,67.67233276367188,1.0,1.0,1.0,0.0,13.800000190734863,77.03594207763672,6.71999979019165,3.9000000953674316,77.17010498046875,1.2666682004928589,6.624000549316406,1.007921814918518,16.99833869934082,262.9706726074219,58.15000915527344,0.0003130284894723445,116.96118927001953,117.21088409423828,63.73870849609375,63.73870849609375,63.7431640625,67.6220703125,67.6220703125,67.6220703125,1.0,1.0,1.0,58.15000915527344,0.00029422229272313416,116.96076965332031,117.21088409423828,63.742767333984375,63.7388916015625,63.738922119140625,67.6220703125,67.6220703125,67.6220703125,1.0,1.0,1.0,0.017094045877456665,-0.0008551003993488848,0.01672612875699997,0.0015721793752163649,0.016494551673531532,0.0015060115838423371,0.01646571047604084,-0.00123765436001122,0.017018981277942657,0.018362797796726227,0.027344323694705963,0.028954066336154938
229.78333333341058,55567,0,4,1,268697600,1570.233333333256,32767,32767,1800.0,32767,0,False,50700.0,False,False,False,False,False,True,120.48295593261719,0.22060437500476837,0.2304440587759018,0.3347484767436981,0.3333333432674408,0.9980487823486328,1.0,0.06699933111667633,0.01666666753590107,0.0,0.0,0,0,3188,3,1,0,0,0,0,0.0,0.0,0,0.0,False,0,0,0,4,False,-0.1365990936756134,0.0,1.0,0.0,0,440.3831481933594,0,-1,4841.1806640625,0.8414220213890076,0,0.0,0.0,0.0,0,0.0,0,0.0,0.0,0.0,False,0.0,0.0,False,0.0,0.0,False,0.0,0.0,False,0.0,0.0,False,0.0013421025360003114,9.48540327954106e-05,1.903443455696106,-0.0023099523968994617,0.005153419449925423,1,34.84418873549317,136.53014611382733,45.87961196899414,26.111114501953125,26.111114501953125,23.88888931274414,1,3,1.1786601543426514,101011.359375,0.44703999161720276,5.4977874755859375,0.46000000834465027,0.0,0.0,1.016387939453125,4.455936431884766,False,True,0.0,0.0,False,0,0,1,1,1,1,1,1,1,1,1,1,1,1,1,1,1,1,1,1,True,6.719511985778809,0.0,0.0,0.0,0.0,1.0,0.0,False,1.0,4,0.4249584376811981,31,117.21088409423828,117.21088409423828,117.21088409423828,117.21088409423828,40.0,0,0.01402914896607399,0.01402914896607399,0.0019652347546070814,0.5,0.0,0.0,0.0,20.784610748291016,True,0.0,0.0,0.0,0.0,0.0,"[0.10394676774740219, 0.15871813893318176, 0.1898857057094574, 0.23153838515281677, 0.2741085886955261, 0.2915903925895691]",0.2915903925895691,-0.0001594580535311252,0.0012431194772943854,0.0005058590904809535,0.0009385990560986102,1.0221098818874452e-05,0.03115486353635788,9.81167221069336,-0.1590847373008728,0.019147424027323723,False,False,False,1.0,1.0,0.0,0.0,40.0,0.0,57.96820068359375,117.21087646484375,117.21087646484375,117.21087646484375,117.21087646484375,80.1976547241211,0.0003301853430457413,116.91522216796875,117.21088409423828,63.704986572265625,63.705047607421875,63.729095458984375,67.67233276367188,67.67233276367188,67.67233276367188,1.0,1.0,1.0,80.1976547241211,0.001197249279357493,116.91571044921875,117.21088409423828,63.731414794921875,63.708892822265625,63.708770751953125,67.67233276367188,67.67233276367188,67.67233276367188,1.0,1.0,1.0,0.0,13.800000190734863,77.0359115600586,6.71999979019165,3.9000000953674316,77.17025756835938,1.3058977127075195,6.624000549316406,1.007921814918518,16.99833869934082,440.3833312988281,58.15000915527344,0.00018161116167902946,116.96111297607422,117.21088409423828,63.738311767578125,63.738311767578125,63.7427978515625,67.6220703125,67.6220703125,67.6220703125,1.0,1.0,1.0,58.15000915527344,0.0003517563745845109,116.960693359375,117.21088409423828,63.74237060546875,63.738494873046875,63.738525390625,67.6220703125,67.6220703125,67.6220703125,1.0,1.0,1.0,0.01703934371471405,-0.006522871553897858,0.01677485927939415,0.007057153154164553,0.01647407002747059,-0.0059502278454601765,0.016493789851665497,0.0061392392963171005,0.01712564378976822,0.018250659108161926,0.027454636991024017,0.02884463220834732
229.80000000007726,55568,0,4,1,268697600,1570.2166666665894,32767,32767,1800.0,32767,0,False,50700.0,False,False,False,False,False,True,120.51830291748047,0.22047798335552216,0.23042254149913788,0.33474060893058777,0.3333333432674408,1.0002700090408325,1.0,0.065999336540699,0.0,0.0,0.0,0,0,3188,3,1,0,0,0,0,0.0,0.0,0,0.0,False,0,0,0,4,False,-0.1365990936756134,0.0,1.0,0.0,0,747.827880859375,0,-1,4841.1806640625,0.8414220213890076,0,0.0,0.0,0.0,0,0.0,0,0.0,0.0,0.0,False,0.0,0.0,False,0.0,0.0,False,0.0,0.0,False,0.0,0.0,False,0.002366593573242426,9.22110557439737e-05,1.903446078300476,-0.00231094378978014,0.005535549484193325,1,34.84418873549317,136.53014611382733,45.87961196899414,26.111114501953125,26.111114501953125,23.88888931274414,1,3,1.1786601543426514,101011.359375,0.44703999161720276,5.4977874755859375,0.46000000834465027,0.0,0.0,1.016387939453125,4.455936431884766,False,True,0.0,0.0,False,0,0,1,1,1,1,1,1,1,1,1,1,1,1,1,1,1,1,1,1,True,6.719511985778809,0.0,0.0,0.0,0.0,1.0,0.0,False,1.0,4,0.42495810985565186,31,117.21088409423828,117.21088409423828,117.21088409423828,117.21088409423828,40.0,0,0.017020344734191895,0.017020344734191895,0.0024048984050750732,0.5,0.0,0.0,0.0,20.784610748291016,True,0.0,0.0,0.0,0.0,0.0,"[0.3148452639579773, 0.34656602144241333, 0.3680460453033447, 0.37078481912612915, 0.3659878969192505, 0.3537612557411194]",0.3537612557411194,-0.00015810411423444748,-0.002296514343470335,0.0005716527230106294,-0.0012002413859590888,-0.0001315004046773538,0.010620800778269768,9.809208869934082,-0.13726049661636353,0.032961104065179825,False,False,False,1.0,1.0,0.0,0.0,40.0,0.0,57.96820068359375,117.21087646484375,117.21087646484375,117.21087646484375,117.21087646484375,80.1976547241211,0.00043060342431999743,116.91513061523438,117.21088409423828,63.704559326171875,63.704620361328125,63.72869873046875,67.67233276367188,67.67233276367188,67.67233276367188,1.0,1.0,1.0,80.1976547241211,0.0004857339372392744,116.91561126708984,117.21088409423828,63.730987548828125,63.708465576171875,63.708343505859375,67.67233276367188,67.67233276367188,67.67233276367188,1.0,1.0,1.0,0.0,13.800000190734863,77.03645324707031,6.71999979019165,3.9000000953674316,77.17051696777344,1.4382035732269287,6.624000549316406,0.932457685470581,16.998323440551758,747.8281860351562,58.15000915527344,0.000733483990188688,116.9610366821289,117.21088409423828,63.73785400390625,63.73785400390625,63.74237060546875,67.6220703125,67.6220703125,67.6220703125,1.0,1.0,1.0,58.15000915527344,0.0003116007137577981,116.96061706542969,117.21088409423828,63.74200439453125,63.73809814453125,63.738128662109375,67.6220703125,67.6220703125,67.6220703125,1.0,1.0,1.0,0.016905419528484344,-0.007344856392592192,0.01692669838666916,0.008331679739058018,0.016343047842383385,-0.0073689124546945095,0.016617953777313232,0.007012168411165476,0.01720806211233139,0.018168896436691284,0.027533791959285736,0.028760142624378204
